{"type":"FeatureCollection","name":"1304_kuleaen_point","features":[{"type":"Feature","geometry":{"type":"Point","coordinates":[104.7288245,13.7833294]},"id":"130404","properties":{"id":"130404","name":"Phnum Penh","description":"\n                            <div>Phnum Penh<\/div>\n                            <div>\n                                3\n                                villages\n                            <\/div>\n                        "}},{"type":"Feature","geometry":{"type":"Point","coordinates":[104.8125852,13.8171134]},"id":"130403","properties":{"id":"130403","name":"Thmei","description":"\n                            <div>Thmei<\/div>\n                            <div>\n                                5\n                                villages\n                            <\/div>\n                        "}},{"type":"Feature","geometry":{"type":"Point","coordinates":[104.7004028,13.8293921]},"id":"130402","properties":{"id":"130402","name":"Kuleaen Cheung","description":"\n                            <div>Kuleaen Cheung<\/div>\n                            <div>\n                                2\n                                villages\n                            <\/div>\n                        "}},{"type":"Feature","geometry":{"type":"Point","coordinates":[104.778796,13.7273566]},"id":"130405","properties":{"id":"130405","name":"Phnum Tbaeng Pir","description":"\n                            <div>Phnum Tbaeng Pir<\/div>\n                            <div>\n                                4\n                                villages\n                            <\/div>\n                        "}},{"type":"Feature","geometry":{"type":"Point","coordinates":[104.5569564,13.7107499]},"id":"130406","properties":{"id":"130406","name":"Srayang","description":"\n                            <div>Srayang<\/div>\n                            <div>\n                                7\n                                villages\n                            <\/div>\n                        "}},{"type":"Feature","geometry":{"type":"Point","coordinates":[104.7063005,13.8160601]},"id":"130401","properties":{"id":"130401","name":"Kuleaen Tboung","description":"\n                            <div>Kuleaen Tboung<\/div>\n                            <div>\n                                2\n                                villages\n                            <\/div>\n                        "}}]}